{"type": "FeatureCollection", "features": [{"type": "Feature", "geometry": {"type": "Point", "coordinates": [116.268425, 40.031388]}, "properties": {"name": "马连洼", "name_en": "", "line": "18号线", "status": "已通车", "type": "station", "calibration_source": "OSM subway station node", "calibration_confidence": "high"}}, {"type": "Feature", "geometry": {"type": "Point", "coordinates": [116.280566, 40.043537]}, "properties": {"name": "上地软件园", "name_en": "", "line": "18号线", "status": "已通车", "type": "station", "calibration_source": "OSM subway station node", "calibration_confidence": "high"}}, {"type": "Feature", "geometry": {"type": "Point", "coordinates": [116.288722, 40.051835]}, "properties": {"name": "东北旺", "name_en": "", "line": "18号线", "status": "已通车", "type": "station", "calibration_source": "OSM subway station node", "calibration_confidence": "high"}}, {"type": "Feature", "geometry": {"type": "Point", "coordinates": [116.304043, 40.071479]}, "properties": {"name": "龙泽西", "name_en": "", "line": "18号线", "status": "已通车", "type": "station", "calibration_source": "OSM subway station node", "calibration_confidence": "high"}}, {"type": "Feature", "geometry": {"type": "Point", "coordinates": [116.324592, 40.077278]}, "properties": {"name": "回龙观西大街", "name_en": "", "line": "18号线", "status": "已通车", "type": "station", "calibration_source": "OSM subway station node", "calibration_confidence": "high"}}, {"type": "Feature", "geometry": {"type": "Point", "coordinates": [116.335662, 40.07884]}, "properties": {"name": "文华路", "name_en": "", "line": "18号线", "status": "已通车", "type": "station", "calibration_source": "OSM subway station node", "calibration_confidence": "high"}}, {"type": "Feature", "geometry": {"type": "Point", "coordinates": [116.357185, 40.079751]}, "properties": {"name": "回龙观东大街", "name_en": "", "line": "18号线", "status": "已通车", "type": "station", "calibration_source": "OSM subway station node", "calibration_confidence": "high"}}, {"type": "Feature", "geometry": {"type": "Point", "coordinates": [116.369803, 40.080569]}, "properties": {"name": "霍营东", "name_en": "", "line": "18号线", "status": "已通车", "type": "station", "calibration_source": "OSM subway station node", "calibration_confidence": "high"}}, {"type": "Feature", "geometry": {"type": "Point", "coordinates": [116.408726, 40.072664]}, "properties": {"name": "天通苑", "name_en": "", "line": "18号线", "status": "已通车", "type": "station", "calibration_source": "OSM subway station node", "calibration_confidence": "high"}}, {"type": "Feature", "geometry": {"type": "Point", "coordinates": [116.420277, 40.072744]}, "properties": {"name": "太平庄", "name_en": "", "line": "18号线", "status": "已通车", "type": "station", "calibration_source": "OSM subway station node", "calibration_confidence": "high"}}, {"type": "Feature", "geometry": {"type": "Point", "coordinates": [116.435984, 40.067101]}, "properties": {"name": "天通苑东", "name_en": "", "line": "18号线", "status": "已通车", "type": "station", "calibration_source": "OSM subway station node", "calibration_confidence": "high"}}]}